header: 
  seq: 25247
  stamp: 
    secs: 1654688904
    nsecs: 583013779
  frame_id: "crazyflie/base_link"
pose: 
  position: 
    x: 0.0060810428112745285
    y: 0.532534658908844
    z: -0.5482767224311829
  orientation: 
    x: -0.0027675412129610777
    y: -0.004151311703026295
    z: 0.0013837706064805388
    w: 0.9999865889549255
---
header: 
  seq: 25248
  stamp: 
    secs: 1654688904
    nsecs: 592370330
  frame_id: "crazyflie/base_link"
pose: 
  position: 
    x: 0.00486682029440999
    y: 0.5360067486763
    z: -0.5529923439025879
  orientation: 
    x: -0.0027675412129610777
    y: -0.004151311703026295
    z: 0.0013837706064805388
    w: 0.9999865889549255
---
header: 
  seq: 25249
  stamp: 
    secs: 1654688904
    nsecs: 604007847
  frame_id: "crazyflie/base_link"
pose: 
  position: 
    x: 0.00463703041896224
    y: 0.5410099625587463
    z: -0.5598227381706238
  orientation: 
    x: -0.0027675412129610777
    y: -0.004151311703026295
    z: 0.0
    w: 0.9999875426292419
---
header: 
  seq: 25250
  stamp: 
    secs: 1654688904
    nsecs: 614045455
  frame_id: "crazyflie/base_link"
pose: 
  position: 
    x: 0.0017984689911827445
    y: 0.5400331020355225
    z: -0.5589650869369507
  orientation: 
    x: -0.0027675412129610777
    y: -0.004151311703026295
    z: 0.0
    w: 0.9999875426292419
---
header: 
  seq: 25251
  stamp: 
    secs: 1654688904
    nsecs: 623371062
  frame_id: "crazyflie/base_link"
pose: 
  position: 
    x: -0.0003592314606066793
    y: 0.5389073491096497
    z: -0.5599136352539062
  orientation: 
    x: -0.0027675412129610777
    y: -0.004151311703026295
    z: 0.0
    w: 0.9999875426292419
---
header: 
  seq: 25252
  stamp: 
    secs: 1654688904
    nsecs: 632700029
  frame_id: "crazyflie/base_link"
pose: 
  position: 
    x: -0.004285816103219986
    y: 0.5409985780715942
    z: -0.5626783967018127
  orientation: 
    x: -0.0027675412129610777
    y: -0.004151311703026295
    z: 0.0
    w: 0.9999875426292419
---
header: 
  seq: 25253
  stamp: 
    secs: 1654688904
    nsecs: 642428443
  frame_id: "crazyflie/base_link"
pose: 
  position: 
    x: -0.00775531493127346
    y: 0.5421740412712097
    z: -0.5645214915275574
  orientation: 
    x: -0.0027675412129610777
    y: -0.004151311703026295
    z: 0.0
    w: 0.9999875426292419
---
header: 
  seq: 25254
  stamp: 
    secs: 1654688904
    nsecs: 653973653
  frame_id: "crazyflie/base_link"
pose: 
  position: 
    x: -0.012286657467484474
    y: 0.5436443090438843
    z: -0.5719277262687683
  orientation: 
    x: -0.0027675412129610777
    y: -0.004151311703026295
    z: 0.0
    w: 0.9999875426292419
---
header: 
  seq: 25255
  stamp: 
    secs: 1654688904
    nsecs: 663492567
  frame_id: "crazyflie/base_link"
pose: 
  position: 
    x: -0.015340662561357021
    y: 0.5424465537071228
    z: -0.5701667666435242
  orientation: 
    x: -0.0027675412129610777
    y: -0.004151311703026295
    z: 0.0
    w: 0.9999875426292419
---
header: 
  seq: 25256
  stamp: 
    secs: 1654688904
    nsecs: 673243170
  frame_id: "crazyflie/base_link"
pose: 
  position: 
    x: -0.015565908513963223
    y: 0.5468905568122864
    z: -0.5752221941947937
  orientation: 
    x: -0.0027675412129610777
    y: -0.004151311703026295
    z: 0.0
    w: 0.9999875426292419
---
header: 
  seq: 25257
  stamp: 
    secs: 1654688904
    nsecs: 682532391
  frame_id: "crazyflie/base_link"
pose: 
  position: 
    x: -0.01473097875714302
    y: 0.5462609529495239
    z: -0.5749620199203491
  orientation: 
    x: -0.004151311703026295
    y: -0.004151311703026295
    z: 0.0
    w: 0.9999827742576599
---
header: 
  seq: 25258
  stamp: 
    secs: 1654688904
    nsecs: 693807835
  frame_id: "crazyflie/base_link"
pose: 
  position: 
    x: -0.015772761777043343
    y: 0.5487965941429138
    z: -0.5789027214050293
  orientation: 
    x: -0.004151311703026295
    y: -0.004151311703026295
    z: 0.0
    w: 0.9999827742576599
---
header: 
  seq: 25259
  stamp: 
    secs: 1654688904
    nsecs: 703053344
  frame_id: "crazyflie/base_link"
pose: 
  position: 
    x: -0.012400838546454906
    y: 0.5488725304603577
    z: -0.5741955041885376
  orientation: 
    x: -0.004151311703026295
    y: -0.004151311703026295
    z: 0.0
    w: 0.9999827742576599
---
header: 
  seq: 25260
  stamp: 
    secs: 1654688904
    nsecs: 714917905
  frame_id: "crazyflie/base_link"
pose: 
  position: 
    x: -0.016574837267398834
    y: 0.5472618341445923
    z: -0.5722770690917969
  orientation: 
    x: -0.004151311703026295
    y: -0.004151311703026295
    z: 0.0
    w: 0.9999827742576599
---
header: 
  seq: 25261
  stamp: 
    secs: 1654688904
    nsecs: 722553102
  frame_id: "crazyflie/base_link"
pose: 
  position: 
    x: -0.01691916212439537
    y: 0.5518569350242615
    z: -0.5787568092346191
  orientation: 
    x: -0.004151311703026295
    y: -0.004151311703026295
    z: 0.0
    w: 0.9999827742576599
---
header: 
  seq: 25262
  stamp: 
    secs: 1654688904
    nsecs: 733875877
  frame_id: "crazyflie/base_link"
pose: 
  position: 
    x: -0.019269326701760292
    y: 0.5496405363082886
    z: -0.5771963000297546
  orientation: 
    x: -0.004151311703026295
    y: -0.004151311703026295
    z: 0.0
    w: 0.9999827742576599
---
header: 
  seq: 25263
  stamp: 
    secs: 1654688904
    nsecs: 743462745
  frame_id: "crazyflie/base_link"
pose: 
  position: 
    x: -0.01743488945066929
    y: 0.5516678690910339
    z: -0.5730459690093994
  orientation: 
    x: -0.004151311703026295
    y: -0.004151311703026295
    z: 0.0
    w: 0.9999827742576599
---
header: 
  seq: 25264
  stamp: 
    secs: 1654688904
    nsecs: 752712762
  frame_id: "crazyflie/base_link"
pose: 
  position: 
    x: -0.020759006962180138
    y: 0.5522624254226685
    z: -0.5769808292388916
  orientation: 
    x: -0.004151311703026295
    y: -0.004151311703026295
    z: 0.0
    w: 0.9999827742576599
---
header: 
  seq: 25265
  stamp: 
    secs: 1654688904
    nsecs: 762141282
  frame_id: "crazyflie/base_link"
pose: 
  position: 
    x: -0.02204863727092743
    y: 0.5560509562492371
    z: -0.5807439684867859
  orientation: 
    x: -0.004151311703026295
    y: -0.004151311703026295
    z: 0.0
    w: 0.9999827742576599
---
header: 
  seq: 25266
  stamp: 
    secs: 1654688904
    nsecs: 773347047
  frame_id: "crazyflie/base_link"
pose: 
  position: 
    x: -0.015611506067216396
    y: 0.5533162355422974
    z: -0.5720592141151428
  orientation: 
    x: -0.004151311703026295
    y: -0.004151311703026295
    z: 0.0
    w: 0.9999827742576599
---
header: 
  seq: 25267
  stamp: 
    secs: 1654688904
    nsecs: 782864273
  frame_id: "crazyflie/base_link"
pose: 
  position: 
    x: -0.01348867267370224
    y: 0.5477150678634644
    z: -0.5710778832435608
  orientation: 
    x: -0.0027675412129610777
    y: -0.004151311703026295
    z: 0.0
    w: 0.9999875426292419
---
header: 
  seq: 25268
  stamp: 
    secs: 1654688904
    nsecs: 792516809
  frame_id: "crazyflie/base_link"
pose: 
  position: 
    x: -0.014064337126910686
    y: 0.5496920943260193
    z: -0.5692083835601807
  orientation: 
    x: -0.004151311703026295
    y: -0.004151311703026295
    z: 0.0
    w: 0.9999827742576599
---
header: 
  seq: 25269
  stamp: 
    secs: 1654688904
    nsecs: 801923392
  frame_id: "crazyflie/base_link"
pose: 
  position: 
    x: -0.00789899192750454
    y: 0.548500120639801
    z: -0.5620781779289246
  orientation: 
    x: -0.004151311703026295
    y: -0.004151311703026295
    z: 0.0
    w: 0.9999827742576599
---
header: 
  seq: 25270
  stamp: 
    secs: 1654688904
    nsecs: 814081387
  frame_id: "crazyflie/base_link"
pose: 
  position: 
    x: -0.010802051983773708
    y: 0.5511709451675415
    z: -0.5652247071266174
  orientation: 
    x: -0.004151311703026295
    y: -0.004151311703026295
    z: 0.0
    w: 0.9999827742576599
---
header: 
  seq: 25271
  stamp: 
    secs: 1654688904
    nsecs: 823321016
  frame_id: "crazyflie/base_link"
pose: 
  position: 
    x: -0.0025027224328368902
    y: 0.5543504357337952
    z: -0.5624145865440369
  orientation: 
    x: -0.004151311703026295
    y: -0.004151311703026295
    z: 0.0
    w: 0.9999827742576599
---
header: 
  seq: 25272
  stamp: 
    secs: 1654688904
    nsecs: 842121418
  frame_id: "crazyflie/base_link"
pose: 
  position: 
    x: -0.008258375339210033
    y: 0.5524948239326477
    z: -0.5635548830032349
  orientation: 
    x: -0.004151311703026295
    y: -0.004151311703026295
    z: 0.0
    w: 0.9999827742576599
---
header: 
  seq: 25273
  stamp: 
    secs: 1654688904
    nsecs: 853345861
  frame_id: "crazyflie/base_link"
pose: 
  position: 
    x: -0.0055236490443348885
    y: 0.5557733178138733
    z: -0.5554437637329102
  orientation: 
    x: -0.004151311703026295
    y: -0.004151311703026295
    z: 0.0
    w: 0.9999827742576599
---
header: 
  seq: 25274
  stamp: 
    secs: 1654688904
    nsecs: 862749147
  frame_id: "crazyflie/base_link"
pose: 
  position: 
    x: -0.010399705730378628
    y: 0.555040180683136
    z: -0.5556141138076782
  orientation: 
    x: -0.004151311703026295
    y: -0.004151311703026295
    z: 0.0
    w: 0.9999827742576599
---
header: 
  seq: 25275
  stamp: 
    secs: 1654688904
    nsecs: 872567079
  frame_id: "crazyflie/base_link"
pose: 
  position: 
    x: -0.008975889533758163
    y: 0.5597144961357117
    z: -0.5583544969558716
  orientation: 
    x: -0.004151311703026295
    y: -0.004151311703026295
    z: 0.0
    w: 0.9999827742576599
---
header: 
  seq: 25276
  stamp: 
    secs: 1654688904
    nsecs: 881839460
  frame_id: "crazyflie/base_link"
pose: 
  position: 
    x: -0.011649712920188904
    y: 0.558739960193634
    z: -0.5574589371681213
  orientation: 
    x: -0.004151311703026295
    y: -0.004151311703026295
    z: 0.0
    w: 0.9999827742576599
---
header: 
  seq: 25277
  stamp: 
    secs: 1654688904
    nsecs: 892850018
  frame_id: "crazyflie/base_link"
pose: 
  position: 
    x: -0.010442807339131832
    y: 0.5643347501754761
    z: -0.5623992681503296
  orientation: 
    x: -0.004151311703026295
    y: -0.004151311703026295
    z: 0.0
    w: 0.9999827742576599
---
header: 
  seq: 25278
  stamp: 
    secs: 1654688904
    nsecs: 902561433
  frame_id: "crazyflie/base_link"
pose: 
  position: 
    x: -0.006282756105065346
    y: 0.5628863573074341
    z: -0.5586331486701965
  orientation: 
    x: -0.004151311703026295
    y: -0.004151311703026295
    z: 0.0
    w: 0.9999827742576599
---
header: 
  seq: 25279
  stamp: 
    secs: 1654688904
    nsecs: 914629448
  frame_id: "crazyflie/base_link"
pose: 
  position: 
    x: -0.009012112393975258
    y: 0.5655179023742676
    z: -0.5617283582687378
  orientation: 
    x: -0.004151311703026295
    y: -0.004151311703026295
    z: 0.0
    w: 0.9999827742576599
---
header: 
  seq: 25280
  stamp: 
    secs: 1654688904
    nsecs: 922226187
  frame_id: "crazyflie/base_link"
pose: 
  position: 
    x: -0.0015807783929631114
    y: 0.568554699420929
    z: -0.5541490316390991
  orientation: 
    x: -0.004151311703026295
    y: -0.004151311703026295
    z: 0.0
    w: 0.9999827742576599
---
header: 
  seq: 25281
  stamp: 
    secs: 1654688904
    nsecs: 933467637
  frame_id: "crazyflie/base_link"
pose: 
  position: 
    x: -0.006724323611706495
    y: 0.5667518377304077
    z: -0.5538475513458252
  orientation: 
    x: -0.004151311703026295
    y: -0.004151311703026295
    z: 0.0
    w: 0.9999827742576599
---
header: 
  seq: 25282
  stamp: 
    secs: 1654688904
    nsecs: 942994520
  frame_id: "crazyflie/base_link"
pose: 
  position: 
    x: -0.01332105603069067
    y: 0.5694231986999512
    z: -0.5623703002929688
  orientation: 
    x: -0.004151311703026295
    y: -0.004151311703026295
    z: 0.0
    w: 0.9999827742576599
---
header: 
  seq: 25283
  stamp: 
    secs: 1654688904
    nsecs: 952349160
  frame_id: "crazyflie/base_link"
pose: 
  position: 
    x: -0.015759428963065147
    y: 0.5671079158782959
    z: -0.5691491961479187
  orientation: 
    x: -0.004151311703026295
    y: -0.004151311703026295
    z: 0.0
    w: 0.9999827742576599
---
header: 
  seq: 25284
  stamp: 
    secs: 1654688904
    nsecs: 961887019
  frame_id: "crazyflie/base_link"
pose: 
  position: 
    x: -0.018698565661907196
    y: 0.5703029036521912
    z: -0.5725335478782654
  orientation: 
    x: -0.004151311703026295
    y: -0.004151311703026295
    z: 0.0
    w: 0.9999827742576599
---
header: 
  seq: 25285
  stamp: 
    secs: 1654688904
    nsecs: 973578061
  frame_id: "crazyflie/base_link"
pose: 
  position: 
    x: -0.015613221563398838
    y: 0.5739624500274658
    z: -0.5713363885879517
  orientation: 
    x: -0.004151311703026295
    y: -0.004151311703026295
    z: 0.0
    w: 0.9999827742576599
---
header: 
  seq: 25286
  stamp: 
    secs: 1654688904
    nsecs: 983207449
  frame_id: "crazyflie/base_link"
pose: 
  position: 
    x: -0.019413532689213753
    y: 0.5727701187133789
    z: -0.5705075263977051
  orientation: 
    x: -0.004151311703026295
    y: -0.004151311703026295
    z: 0.0
    w: 0.9999827742576599
---
header: 
  seq: 25287
  stamp: 
    secs: 1654688904
    nsecs: 992258073
  frame_id: "crazyflie/base_link"
pose: 
  position: 
    x: -0.024673117324709892
    y: 0.5655788779258728
    z: -0.5740131735801697
  orientation: 
    x: -0.004151311703026295
    y: -0.004151311703026295
    z: 0.0
    w: 0.9999827742576599
---
header: 
  seq: 25288
  stamp: 
    secs: 1654688905
    nsecs:  23304829
  frame_id: "crazyflie/base_link"
pose: 
  position: 
    x: -0.029616577550768852
    y: 0.5665792226791382
    z: -0.5714910626411438
  orientation: 
    x: -0.004151311703026295
    y: -0.004151311703026295
    z: 0.0
    w: 0.9999827742576599
---
header: 
  seq: 25289
  stamp: 
    secs: 1654688905
    nsecs:  32905271
  frame_id: "crazyflie/base_link"
pose: 
  position: 
    x: -0.04368411749601364
    y: 0.5548009276390076
    z: -0.5859774947166443
  orientation: 
    x: -0.0027675412129610777
    y: -0.005535082425922155
    z: 0.0013837706064805388
    w: 0.9999798536300659
---
header: 
  seq: 25290
  stamp: 
    secs: 1654688905
    nsecs:  42323573
  frame_id: "crazyflie/base_link"
pose: 
  position: 
    x: -0.04469076171517372
    y: 0.5597143173217773
    z: -0.5918020009994507
  orientation: 
    x: -0.004151311703026295
    y: -0.005535082425922155
    z: 0.0013837706064805388
    w: 0.9999750852584839
---
header: 
  seq: 25291
  stamp: 
    secs: 1654688905
    nsecs:  51811730
  frame_id: "crazyflie/base_link"
pose: 
  position: 
    x: -0.04782834276556969
    y: 0.5584104061126709
    z: -0.5883910059928894
  orientation: 
    x: -0.0027675412129610777
    y: -0.005535082425922155
    z: 0.0013837706064805388
    w: 0.9999798536300659
---
header: 
  seq: 25292
  stamp: 
    secs: 1654688905
    nsecs:  63212944
  frame_id: "crazyflie/base_link"
pose: 
  position: 
    x: -0.0500456839799881
    y: 0.5608307123184204
    z: -0.5902400016784668
  orientation: 
    x: -0.004151311703026295
    y: -0.005535082425922155
    z: 0.0013837706064805388
    w: 0.9999750852584839
---
header: 
  seq: 25293
  stamp: 
    secs: 1654688905
    nsecs:  72426447
  frame_id: "crazyflie/base_link"
pose: 
  position: 
    x: -0.05066397786140442
    y: 0.5634137392044067
    z: -0.5927923321723938
  orientation: 
    x: -0.004151311703026295
    y: -0.005535082425922155
    z: 0.0013837706064805388
    w: 0.9999750852584839
---
header: 
  seq: 25294
  stamp: 
    secs: 1654688905
    nsecs:  81769902
  frame_id: "crazyflie/base_link"
pose: 
  position: 
    x: -0.05346623808145523
    y: 0.5625739693641663
    z: -0.5900933742523193
  orientation: 
    x: -0.004151311703026295
    y: -0.005535082425922155
    z: 0.0013837706064805388
    w: 0.9999750852584839
---
header: 
  seq: 25295
  stamp: 
    secs: 1654688905
    nsecs:  92772936
  frame_id: "crazyflie/base_link"
pose: 
  position: 
    x: -0.04786505177617073
    y: 0.5624488592147827
    z: -0.5881192088127136
  orientation: 
    x: -0.004151311703026295
    y: -0.005535082425922155
    z: 0.0013837706064805388
    w: 0.9999750852584839
---
header: 
  seq: 25296
  stamp: 
    secs: 1654688905
    nsecs: 102053341
  frame_id: "crazyflie/base_link"
pose: 
  position: 
    x: -0.0495154969394207
    y: 0.5598154664039612
    z: -0.5856391787528992
  orientation: 
    x: -0.0027675412129610777
    y: -0.005535082425922155
    z: 0.0013837706064805388
    w: 0.9999798536300659
---
header: 
  seq: 25297
  stamp: 
    secs: 1654688905
    nsecs: 114134800
  frame_id: "crazyflie/base_link"
pose: 
  position: 
    x: -0.0494256317615509
    y: 0.5627385377883911
    z: -0.5850472450256348
  orientation: 
    x: -0.004151311703026295
    y: -0.005535082425922155
    z: 0.0013837706064805388
    w: 0.9999750852584839
---
header: 
  seq: 25298
  stamp: 
    secs: 1654688905
    nsecs: 121672805
  frame_id: "crazyflie/base_link"
pose: 
  position: 
    x: -0.04969175159931183
    y: 0.5644353032112122
    z: -0.5884910821914673
  orientation: 
    x: -0.004151311703026295
    y: -0.005535082425922155
    z: 0.0013837706064805388
    w: 0.9999750852584839
---
header: 
  seq: 25299
  stamp: 
    secs: 1654688905
    nsecs: 133240897
  frame_id: "crazyflie/base_link"
pose: 
  position: 
    x: -0.049996476620435715
    y: 0.5647550821304321
    z: -0.5882563591003418
  orientation: 
    x: -0.004151311703026295
    y: -0.005535082425922155
    z: 0.0013837706064805388
    w: 0.9999750852584839
---
header: 
  seq: 25300
  stamp: 
    secs: 1654688905
    nsecs: 142539392
  frame_id: "crazyflie/base_link"
pose: 
  position: 
    x: -0.040828391909599304
    y: 0.5595390796661377
    z: -0.5799234509468079
  orientation: 
    x: -0.0027675412129610777
    y: -0.005535082425922155
    z: 0.0013837706064805388
    w: 0.9999798536300659
---
header: 
  seq: 25301
  stamp: 
    secs: 1654688905
    nsecs: 151814423
  frame_id: "crazyflie/base_link"
pose: 
  position: 
    x: -0.039810072630643845
    y: 0.5539028644561768
    z: -0.578978955745697
  orientation: 
    x: -0.0027675412129610777
    y: -0.005535082425922155
    z: 0.0013837706064805388
    w: 0.9999798536300659
---
header: 
  seq: 25302
  stamp: 
    secs: 1654688905
    nsecs: 163035836
  frame_id: "crazyflie/base_link"
pose: 
  position: 
    x: -0.040485505014657974
    y: 0.557388186454773
    z: -0.5790523886680603
  orientation: 
    x: -0.0027675412129610777
    y: -0.005535082425922155
    z: 0.0013837706064805388
    w: 0.9999798536300659
---
header: 
  seq: 25303
  stamp: 
    secs: 1654688905
    nsecs: 172592020
  frame_id: "crazyflie/base_link"
pose: 
  position: 
    x: -0.03388569876551628
    y: 0.5536519885063171
    z: -0.574913740158081
  orientation: 
    x: -0.0027675412129610777
    y: -0.004151311703026295
    z: 0.0013837706064805388
    w: 0.9999865889549255
---
header: 
  seq: 25304
  stamp: 
    secs: 1654688905
    nsecs: 182015921
  frame_id: "crazyflie/base_link"
pose: 
  position: 
    x: -0.04126477614045143
    y: 0.5486325025558472
    z: -0.5794936418533325
  orientation: 
    x: -0.0027675412129610777
    y: -0.005535082425922155
    z: 0.0013837706064805388
    w: 0.9999798536300659
---
header: 
  seq: 25305
  stamp: 
    secs: 1654688905
    nsecs: 193602207
  frame_id: "crazyflie/base_link"
pose: 
  position: 
    x: -0.028445446863770485
    y: 0.5495181083679199
    z: -0.5726006627082825
  orientation: 
    x: -0.0027675412129610777
    y: -0.004151311703026295
    z: 0.0013837706064805388
    w: 0.9999865889549255
---
header: 
  seq: 25306
  stamp: 
    secs: 1654688905
    nsecs: 203267536
  frame_id: "crazyflie/base_link"
pose: 
  position: 
    x: -0.02853206917643547
    y: 0.5496352314949036
    z: -0.5723182559013367
  orientation: 
    x: -0.0027675412129610777
    y: -0.004151311703026295
    z: 0.0013837706064805388
    w: 0.9999865889549255
---
header: 
  seq: 25307
  stamp: 
    secs: 1654688905
    nsecs: 213357354
  frame_id: "crazyflie/base_link"
pose: 
  position: 
    x: -0.024465391412377357
    y: 0.5531811118125916
    z: -0.5706667304039001
  orientation: 
    x: -0.0027675412129610777
    y: -0.004151311703026295
    z: 0.0013837706064805388
    w: 0.9999865889549255
---
header: 
  seq: 25308
  stamp: 
    secs: 1654688905
    nsecs: 222737932
  frame_id: "crazyflie/base_link"
pose: 
  position: 
    x: -0.021273763850331306
    y: 0.545677661895752
    z: -0.5673235654830933
  orientation: 
    x: -0.0027675412129610777
    y: -0.004151311703026295
    z: 0.0013837706064805388
    w: 0.9999865889549255
---
header: 
  seq: 25309
  stamp: 
    secs: 1654688905
    nsecs: 232299421
  frame_id: "crazyflie/base_link"
pose: 
  position: 
    x: -0.02417704463005066
    y: 0.5473055839538574
    z: -0.5686172246932983
  orientation: 
    x: -0.0027675412129610777
    y: -0.004151311703026295
    z: 0.0013837706064805388
    w: 0.9999865889549255
---
header: 
  seq: 25310
  stamp: 
    secs: 1654688905
    nsecs: 261795113
  frame_id: "crazyflie/base_link"
pose: 
  position: 
    x: -0.02368747442960739
    y: 0.551813542842865
    z: -0.5728948712348938
  orientation: 
    x: -0.0027675412129610777
    y: -0.004151311703026295
    z: 0.0013837706064805388
    w: 0.9999865889549255
---
header: 
  seq: 25311
  stamp: 
    secs: 1654688905
    nsecs: 273157880
  frame_id: "crazyflie/base_link"
pose: 
  position: 
    x: -0.025945022702217102
    y: 0.5520173907279968
    z: -0.5756147503852844
  orientation: 
    x: -0.0027675412129610777
    y: -0.004151311703026295
    z: 0.0013837706064805388
    w: 0.9999865889549255
---
header: 
  seq: 25312
  stamp: 
    secs: 1654688905
    nsecs: 282732481
  frame_id: "crazyflie/base_link"
pose: 
  position: 
    x: -0.03169858828186989
    y: 0.5473290681838989
    z: -0.5839583873748779
  orientation: 
    x: -0.0027675412129610777
    y: -0.004151311703026295
    z: 0.0013837706064805388
    w: 0.9999865889549255
---
header: 
  seq: 25313
  stamp: 
    secs: 1654688905
    nsecs: 301448676
  frame_id: "crazyflie/base_link"
pose: 
  position: 
    x: -0.03419338911771774
    y: 0.5477319359779358
    z: -0.582802414894104
  orientation: 
    x: -0.0027675412129610777
    y: -0.004151311703026295
    z: 0.0013837706064805388
    w: 0.9999865889549255
---
header: 
  seq: 25314
  stamp: 
    secs: 1654688905
    nsecs: 313752083
  frame_id: "crazyflie/base_link"
pose: 
  position: 
    x: -0.027944199740886688
    y: 0.5506861805915833
    z: -0.5839214324951172
  orientation: 
    x: -0.0027675412129610777
    y: -0.004151311703026295
    z: 0.0013837706064805388
    w: 0.9999865889549255
---
header: 
  seq: 25315
  stamp: 
    secs: 1654688905
    nsecs: 321452061
  frame_id: "crazyflie/base_link"
pose: 
  position: 
    x: -0.026157928630709648
    y: 0.5410459637641907
    z: -0.5831155180931091
  orientation: 
    x: -0.0027675412129610777
    y: -0.004151311703026295
    z: 0.0013837706064805388
    w: 0.9999865889549255
---
header: 
  seq: 25316
  stamp: 
    secs: 1654688905
    nsecs: 333001098
  frame_id: "crazyflie/base_link"
pose: 
  position: 
    x: -0.02453104592859745
    y: 0.5439867973327637
    z: -0.5812308192253113
  orientation: 
    x: -0.0027675412129610777
    y: -0.004151311703026295
    z: 0.0013837706064805388
    w: 0.9999865889549255
---
header: 
  seq: 25317
  stamp: 
    secs: 1654688905
    nsecs: 342505284
  frame_id: "crazyflie/base_link"
pose: 
  position: 
    x: -0.028787769377231598
    y: 0.5494670867919922
    z: -0.5891782641410828
  orientation: 
    x: -0.0027675412129610777
    y: -0.004151311703026295
    z: 0.0013837706064805388
    w: 0.9999865889549255
---
header: 
  seq: 25318
  stamp: 
    secs: 1654688905
    nsecs: 351828341
  frame_id: "crazyflie/base_link"
pose: 
  position: 
    x: -0.033850617706775665
    y: 0.5477525591850281
    z: -0.585112452507019
  orientation: 
    x: -0.0027675412129610777
    y: -0.004151311703026295
    z: 0.0013837706064805388
    w: 0.9999865889549255
---
header: 
  seq: 25319
  stamp: 
    secs: 1654688905
    nsecs: 362665565
  frame_id: "crazyflie/base_link"
pose: 
  position: 
    x: -0.023861851543188095
    y: 0.5485156774520874
    z: -0.5726854205131531
  orientation: 
    x: -0.0027675412129610777
    y: -0.004151311703026295
    z: 0.0013837706064805388
    w: 0.9999865889549255
---
header: 
  seq: 25320
  stamp: 
    secs: 1654688905
    nsecs: 371685497
  frame_id: "crazyflie/base_link"
pose: 
  position: 
    x: -0.026392526924610138
    y: 0.5472717881202698
    z: -0.5708510875701904
  orientation: 
    x: -0.0027675412129610777
    y: -0.004151311703026295
    z: 0.0013837706064805388
    w: 0.9999865889549255
---
header: 
  seq: 25321
  stamp: 
    secs: 1654688905
    nsecs: 382983401
  frame_id: "crazyflie/base_link"
pose: 
  position: 
    x: -0.02934756875038147
    y: 0.5458831787109375
    z: -0.5670951008796692
  orientation: 
    x: -0.0027675412129610777
    y: -0.004151311703026295
    z: 0.0013837706064805388
    w: 0.9999865889549255
---
header: 
  seq: 25322
  stamp: 
    secs: 1654688905
    nsecs: 392807746
  frame_id: "crazyflie/base_link"
pose: 
  position: 
    x: -0.018466783687472343
    y: 0.5496335625648499
    z: -0.5568110346794128
  orientation: 
    x: -0.0027675412129610777
    y: -0.004151311703026295
    z: 0.0013837706064805388
    w: 0.9999865889549255
---
header: 
  seq: 25323
  stamp: 
    secs: 1654688905
    nsecs: 401800705
  frame_id: "crazyflie/base_link"
pose: 
  position: 
    x: -0.020625978708267212
    y: 0.5489326119422913
    z: -0.5554404854774475
  orientation: 
    x: -0.0027675412129610777
    y: -0.004151311703026295
    z: 0.0013837706064805388
    w: 0.9999865889549255
---
header: 
  seq: 25324
  stamp: 
    secs: 1654688905
    nsecs: 422311141
  frame_id: "crazyflie/base_link"
pose: 
  position: 
    x: -0.0160344447940588
    y: 0.5446311235427856
    z: -0.5461832880973816
  orientation: 
    x: -0.0027675412129610777
    y: -0.004151311703026295
    z: 0.0013837706064805388
    w: 0.9999865889549255
---
header: 
  seq: 25325
  stamp: 
    secs: 1654688905
    nsecs: 431802338
  frame_id: "crazyflie/base_link"
pose: 
  position: 
    x: -0.038293760269880295
    y: 0.5313882827758789
    z: -0.5676248073577881
  orientation: 
    x: -0.0027675412129610777
    y: -0.005535082425922155
    z: 0.0013837706064805388
    w: 0.9999798536300659
---
header: 
  seq: 25326
  stamp: 
    secs: 1654688905
    nsecs: 441365690
  frame_id: "crazyflie/base_link"
pose: 
  position: 
    x: -0.038462843745946884
    y: 0.5312557220458984
    z: -0.5670897364616394
  orientation: 
    x: -0.0027675412129610777
    y: -0.005535082425922155
    z: 0.0013837706064805388
    w: 0.9999798536300659
---
header: 
  seq: 25327
  stamp: 
    secs: 1654688905
    nsecs: 452964622
  frame_id: "crazyflie/base_link"
pose: 
  position: 
    x: -0.03903905302286148
    y: 0.530913233757019
    z: -0.5663159489631653
  orientation: 
    x: -0.0027675412129610777
    y: -0.005535082425922155
    z: 0.0013837706064805388
    w: 0.9999798536300659
---
header: 
  seq: 25328
  stamp: 
    secs: 1654688905
    nsecs: 462687278
  frame_id: "crazyflie/base_link"
pose: 
  position: 
    x: -0.037193477153778076
    y: 0.5316126346588135
    z: -0.5710950493812561
  orientation: 
    x: -0.0027675412129610777
    y: -0.004151311703026295
    z: 0.0013837706064805388
    w: 0.9999865889549255
---
header: 
  seq: 25329
  stamp: 
    secs: 1654688905
    nsecs: 471982185
  frame_id: "crazyflie/base_link"
pose: 
  position: 
    x: -0.03299908712506294
    y: 0.5283920168876648
    z: -0.5737301111221313
  orientation: 
    x: -0.0013837706064805388
    y: -0.004151311703026295
    z: 0.0013837706064805388
    w: 0.9999894499778748
---
header: 
  seq: 25330
  stamp: 
    secs: 1654688905
    nsecs: 481655649
  frame_id: "crazyflie/base_link"
pose: 
  position: 
    x: -0.022963793948292732
    y: 0.5342127084732056
    z: -0.566552460193634
  orientation: 
    x: -0.0027675412129610777
    y: -0.004151311703026295
    z: 0.0013837706064805388
    w: 0.9999865889549255
---
header: 
  seq: 25331
  stamp: 
    secs: 1654688905
    nsecs: 491526692
  frame_id: "crazyflie/base_link"
pose: 
  position: 
    x: -0.011426324024796486
    y: 0.5239280462265015
    z: -0.5517553687095642
  orientation: 
    x: -0.0013837706064805388
    y: -0.004151311703026295
    z: 0.0013837706064805388
    w: 0.9999894499778748
---
header: 
  seq: 25332
  stamp: 
    secs: 1654688905
    nsecs: 502862334
  frame_id: "crazyflie/base_link"
pose: 
  position: 
    x: -0.011042061261832714
    y: 0.5271837711334229
    z: -0.5551362037658691
  orientation: 
    x: -0.0013837706064805388
    y: -0.004151311703026295
    z: 0.0013837706064805388
    w: 0.9999894499778748
---
header: 
  seq: 25333
  stamp: 
    secs: 1654688905
    nsecs: 513286585
  frame_id: "crazyflie/base_link"
pose: 
  position: 
    x: -0.0033439085818827152
    y: 0.5192761421203613
    z: -0.5507041215896606
  orientation: 
    x: -0.0013837706064805388
    y: -0.004151311703026295
    z: 0.0013837706064805388
    w: 0.9999894499778748
---
header: 
  seq: 25334
  stamp: 
    secs: 1654688905
    nsecs: 522948876
  frame_id: "crazyflie/base_link"
pose: 
  position: 
    x: -0.0024580059107393026
    y: 0.5089278221130371
    z: -0.5508852601051331
  orientation: 
    x: -0.0013837706064805388
    y: -0.004151311703026295
    z: 0.0013837706064805388
    w: 0.9999894499778748
---
header: 
  seq: 25335
  stamp: 
    secs: 1654688905
    nsecs: 532170511
  frame_id: "crazyflie/base_link"
pose: 
  position: 
    x: 0.0016239535761997104
    y: 0.5118592381477356
    z: -0.5497998595237732
  orientation: 
    x: -0.0013837706064805388
    y: -0.004151311703026295
    z: 0.0013837706064805388
    w: 0.9999894499778748
---
header: 
  seq: 25336
  stamp: 
    secs: 1654688905
    nsecs: 541502007
  frame_id: "crazyflie/base_link"
pose: 
  position: 
    x: 0.005359285045415163
    y: 0.5127438902854919
    z: -0.5427138209342957
  orientation: 
    x: -0.0013837706064805388
    y: -0.004151311703026295
    z: 0.0013837706064805388
    w: 0.9999894499778748
---
header: 
  seq: 25337
  stamp: 
    secs: 1654688905
    nsecs: 552691773
  frame_id: "crazyflie/base_link"
pose: 
  position: 
    x: 0.006651179399341345
    y: 0.518302857875824
    z: -0.5488192439079285
  orientation: 
    x: -0.0013837706064805388
    y: -0.0027675412129610777
    z: 0.0013837706064805388
    w: 0.9999942183494568
---
header: 
  seq: 25338
  stamp: 
    secs: 1654688905
    nsecs: 562183699
  frame_id: "crazyflie/base_link"
pose: 
  position: 
    x: 0.012906490825116634
    y: 0.5134605169296265
    z: -0.5447696447372437
  orientation: 
    x: -0.0013837706064805388
    y: -0.0027675412129610777
    z: 0.0013837706064805388
    w: 0.9999942183494568
---
header: 
  seq: 25339
  stamp: 
    secs: 1654688905
    nsecs: 571635721
  frame_id: "crazyflie/base_link"
pose: 
  position: 
    x: 0.009809145703911781
    y: 0.510643482208252
    z: -0.5436897873878479
  orientation: 
    x: -0.0013837706064805388
    y: -0.004151311703026295
    z: 0.0013837706064805388
    w: 0.9999894499778748
---
header: 
  seq: 25340
  stamp: 
    secs: 1654688905
    nsecs: 581124572
  frame_id: "crazyflie/base_link"
pose: 
  position: 
    x: 0.0012232072185724974
    y: 0.5097454786300659
    z: -0.5585979223251343
  orientation: 
    x: -0.0013837706064805388
    y: -0.004151311703026295
    z: 0.0013837706064805388
    w: 0.9999894499778748
---
header: 
  seq: 25341
  stamp: 
    secs: 1654688905
    nsecs: 592709732
  frame_id: "crazyflie/base_link"
pose: 
  position: 
    x: 0.0033254812005907297
    y: 0.5114551782608032
    z: -0.5524277687072754
  orientation: 
    x: -0.0013837706064805388
    y: -0.004151311703026295
    z: 0.0013837706064805388
    w: 0.9999894499778748
---
header: 
  seq: 25342
  stamp: 
    secs: 1654688905
    nsecs: 602322535
  frame_id: "crazyflie/base_link"
pose: 
  position: 
    x: -0.0010697352699935436
    y: 0.5127844214439392
    z: -0.5539272427558899
  orientation: 
    x: -0.0013837706064805388
    y: -0.004151311703026295
    z: 0.0013837706064805388
    w: 0.9999894499778748
---
header: 
  seq: 25343
  stamp: 
    secs: 1654688905
    nsecs: 612505043
  frame_id: "crazyflie/base_link"
pose: 
  position: 
    x: 0.001159959938377142
    y: 0.506019115447998
    z: -0.5541483163833618
  orientation: 
    x: -0.0013837706064805388
    y: -0.004151311703026295
    z: 0.0013837706064805388
    w: 0.9999894499778748
---
header: 
  seq: 25344
  stamp: 
    secs: 1654688905
    nsecs: 622218216
  frame_id: "crazyflie/base_link"
pose: 
  position: 
    x: -0.0020362415816634893
    y: 0.5043323040008545
    z: -0.5515099763870239
  orientation: 
    x: -0.0013837706064805388
    y: -0.004151311703026295
    z: 0.0013837706064805388
    w: 0.9999894499778748
---
header: 
  seq: 25345
  stamp: 
    secs: 1654688905
    nsecs: 631750592
  frame_id: "crazyflie/base_link"
pose: 
  position: 
    x: -0.0030876442324370146
    y: 0.5077595114707947
    z: -0.5511938333511353
  orientation: 
    x: -0.0013837706064805388
    y: -0.004151311703026295
    z: 0.0013837706064805388
    w: 0.9999894499778748
---
header: 
  seq: 25346
  stamp: 
    secs: 1654688905
    nsecs: 642921096
  frame_id: "crazyflie/base_link"
pose: 
  position: 
    x: 0.00033882432035170496
    y: 0.5109670162200928
    z: -0.5406920313835144
  orientation: 
    x: -0.0013837706064805388
    y: -0.004151311703026295
    z: 0.0013837706064805388
    w: 0.9999894499778748
---
header: 
  seq: 25347
  stamp: 
    secs: 1654688905
    nsecs: 653105307
  frame_id: "crazyflie/base_link"
pose: 
  position: 
    x: -0.0040974547155201435
    y: 0.5132707953453064
    z: -0.5436902642250061
  orientation: 
    x: -0.0013837706064805388
    y: -0.004151311703026295
    z: 0.0013837706064805388
    w: 0.9999894499778748
---
header: 
  seq: 25348
  stamp: 
    secs: 1654688905
    nsecs: 662796139
  frame_id: "crazyflie/base_link"
pose: 
  position: 
    x: -0.003991712816059589
    y: 0.5128011703491211
    z: -0.5431545376777649
  orientation: 
    x: -0.0013837706064805388
    y: -0.004151311703026295
    z: 0.0013837706064805388
    w: 0.9999894499778748
---
header: 
  seq: 25349
  stamp: 
    secs: 1654688905
    nsecs: 672295521
  frame_id: "crazyflie/base_link"
pose: 
  position: 
    x: -0.006800602190196514
    y: 0.5113086700439453
    z: -0.5412615537643433
  orientation: 
    x: -0.0013837706064805388
    y: -0.004151311703026295
    z: 0.0013837706064805388
    w: 0.9999894499778748
---
header: 
  seq: 25350
  stamp: 
    secs: 1654688905
    nsecs: 681994058
  frame_id: "crazyflie/base_link"
pose: 
  position: 
    x: -0.0018413158832117915
    y: 0.5129265189170837
    z: -0.5332860946655273
  orientation: 
    x: -0.0013837706064805388
    y: -0.004151311703026295
    z: 0.0013837706064805388
    w: 0.9999894499778748
---
header: 
  seq: 25351
  stamp: 
    secs: 1654688905
    nsecs: 691162850
  frame_id: "crazyflie/base_link"
pose: 
  position: 
    x: -0.0018741207895800471
    y: 0.5124445557594299
    z: -0.5332263708114624
  orientation: 
    x: -0.0013837706064805388
    y: -0.004151311703026295
    z: 0.0013837706064805388
    w: 0.9999894499778748
---
header: 
  seq: 25352
  stamp: 
    secs: 1654688905
    nsecs: 712588995
  frame_id: "crazyflie/base_link"
pose: 
  position: 
    x: 0.0036998821888118982
    y: 0.5183783769607544
    z: -0.5272312760353088
  orientation: 
    x: -0.0013837706064805388
    y: -0.004151311703026295
    z: 0.0013837706064805388
    w: 0.9999894499778748
---
header: 
  seq: 25353
  stamp: 
    secs: 1654688905
    nsecs: 722110253
  frame_id: "crazyflie/base_link"
pose: 
  position: 
    x: -0.0010953242890536785
    y: 0.5160990953445435
    z: -0.5256202816963196
  orientation: 
    x: -0.0013837706064805388
    y: -0.004151311703026295
    z: 0.0013837706064805388
    w: 0.9999894499778748
---
header: 
  seq: 25354
  stamp: 
    secs: 1654688905
    nsecs: 731585624
  frame_id: "crazyflie/base_link"
pose: 
  position: 
    x: -0.01608613319694996
    y: 0.5080432891845703
    z: -0.5370954275131226
  orientation: 
    x: -0.0013837706064805388
    y: -0.004151311703026295
    z: 0.0013837706064805388
    w: 0.9999894499778748
---
header: 
  seq: 25355
  stamp: 
    secs: 1654688905
    nsecs: 741192583
  frame_id: "crazyflie/base_link"
pose: 
  position: 
    x: -0.017740147188305855
    y: 0.509361743927002
    z: -0.5362226963043213
  orientation: 
    x: -0.0013837706064805388
    y: -0.004151311703026295
    z: 0.0013837706064805388
    w: 0.9999894499778748
---
header: 
  seq: 25356
  stamp: 
    secs: 1654688905
    nsecs: 762227912
  frame_id: "crazyflie/base_link"
pose: 
  position: 
    x: -0.010212855413556099
    y: 0.5144354701042175
    z: -0.5379443168640137
  orientation: 
    x: -0.0013837706064805388
    y: -0.004151311703026295
    z: 0.0013837706064805388
    w: 0.9999894499778748
---
header: 
  seq: 25357
  stamp: 
    secs: 1654688905
    nsecs: 771690936
  frame_id: "crazyflie/base_link"
pose: 
  position: 
    x: -0.01019718311727047
    y: 0.5141213536262512
    z: -0.5375247597694397
  orientation: 
    x: -0.0013837706064805388
    y: -0.004151311703026295
    z: 0.0013837706064805388
    w: 0.9999894499778748
---
header: 
  seq: 25358
  stamp: 
    secs: 1654688905
    nsecs: 781191227
  frame_id: "crazyflie/base_link"
pose: 
  position: 
    x: -0.009113067761063576
    y: 0.514190673828125
    z: -0.5422398447990417
  orientation: 
    x: -0.0013837706064805388
    y: -0.004151311703026295
    z: 0.0013837706064805388
    w: 0.9999894499778748
---
header: 
  seq: 25359
  stamp: 
    secs: 1654688905
    nsecs: 792844979
  frame_id: "crazyflie/base_link"
pose: 
  position: 
    x: -0.0087149478495121
    y: 0.5103436708450317
    z: -0.5414974689483643
  orientation: 
    x: -0.0013837706064805388
    y: -0.004151311703026295
    z: 0.0013837706064805388
    w: 0.9999894499778748
---
header: 
  seq: 25360
  stamp: 
    secs: 1654688905
    nsecs: 802321210
  frame_id: "crazyflie/base_link"
pose: 
  position: 
    x: -0.008790483698248863
    y: 0.5117149353027344
    z: -0.5465079545974731
  orientation: 
    x: -0.0013837706064805388
    y: -0.004151311703026295
    z: 0.0013837706064805388
    w: 0.9999894499778748
---
header: 
  seq: 25361
  stamp: 
    secs: 1654688905
    nsecs: 813753522
  frame_id: "crazyflie/base_link"
pose: 
  position: 
    x: -0.007182343862950802
    y: 0.5163610577583313
    z: -0.5476310849189758
  orientation: 
    x: -0.0013837706064805388
    y: -0.004151311703026295
    z: 0.0013837706064805388
    w: 0.9999894499778748
---
header: 
  seq: 25362
  stamp: 
    secs: 1654688905
    nsecs: 821322013
  frame_id: "crazyflie/base_link"
pose: 
  position: 
    x: -0.011959533207118511
    y: 0.5142183899879456
    z: -0.5450446605682373
  orientation: 
    x: -0.0013837706064805388
    y: -0.004151311703026295
    z: 0.0013837706064805388
    w: 0.9999894499778748
---
header: 
  seq: 25363
  stamp: 
    secs: 1654688905
    nsecs: 832540423
  frame_id: "crazyflie/base_link"
pose: 
  position: 
    x: -0.009850052185356617
    y: 0.517412006855011
    z: -0.5406753420829773
  orientation: 
    x: -0.0013837706064805388
    y: -0.004151311703026295
    z: 0.0013837706064805388
    w: 0.9999894499778748
---
header: 
  seq: 25364
  stamp: 
    secs: 1654688905
    nsecs: 842058711
  frame_id: "crazyflie/base_link"
pose: 
  position: 
    x: -0.007296869996935129
    y: 0.5148133635520935
    z: -0.5405861139297485
  orientation: 
    x: -0.0013837706064805388
    y: -0.004151311703026295
    z: 0.0013837706064805388
    w: 0.9999894499778748
---
header: 
  seq: 25365
  stamp: 
    secs: 1654688905
    nsecs: 851691446
  frame_id: "crazyflie/base_link"
pose: 
  position: 
    x: 0.007320172153413296
    y: 0.5182602405548096
    z: -0.521685004234314
  orientation: 
    x: -0.0013837706064805388
    y: -0.004151311703026295
    z: 0.0013837706064805388
    w: 0.9999894499778748
---
header: 
  seq: 25366
  stamp: 
    secs: 1654688905
    nsecs: 861284235
  frame_id: "crazyflie/base_link"
pose: 
  position: 
    x: 0.011722933501005173
    y: 0.5220194458961487
    z: -0.5212656259536743
  orientation: 
    x: -0.0027675412129610777
    y: -0.004151311703026295
    z: 0.0013837706064805388
    w: 0.9999865889549255
---
header: 
  seq: 25367
  stamp: 
    secs: 1654688905
    nsecs: 872636363
  frame_id: "crazyflie/base_link"
pose: 
  position: 
    x: 0.0076501802541315556
    y: 0.5203830599784851
    z: -0.5203378200531006
  orientation: 
    x: -0.0027675412129610777
    y: -0.004151311703026295
    z: 0.0013837706064805388
    w: 0.9999865889549255
---
header: 
  seq: 25368
  stamp: 
    secs: 1654688905
    nsecs: 882231764
  frame_id: "crazyflie/base_link"
pose: 
  position: 
    x: 0.011344119906425476
    y: 0.5235446095466614
    z: -0.5180623531341553
  orientation: 
    x: -0.0027675412129610777
    y: -0.004151311703026295
    z: 0.0013837706064805388
    w: 0.9999865889549255
---
header: 
  seq: 25369
  stamp: 
    secs: 1654688905
    nsecs: 891601888
  frame_id: "crazyflie/base_link"
pose: 
  position: 
    x: 0.006495844107121229
    y: 0.5247912406921387
    z: -0.5167507529258728
  orientation: 
    x: -0.0027675412129610777
    y: -0.004151311703026295
    z: 0.0013837706064805388
    w: 0.9999865889549255
---
header: 
  seq: 25370
  stamp: 
    secs: 1654688905
    nsecs: 901129603
  frame_id: "crazyflie/base_link"
pose: 
  position: 
    x: 0.011097521521151066
    y: 0.5276085138320923
    z: -0.5133906006813049
  orientation: 
    x: -0.0027675412129610777
    y: -0.004151311703026295
    z: 0.0013837706064805388
    w: 0.9999865889549255
---
header: 
  seq: 25371
  stamp: 
    secs: 1654688905
    nsecs: 913101243
  frame_id: "crazyflie/base_link"
pose: 
  position: 
    x: 0.02547977678477764
    y: 0.5224247574806213
    z: -0.5011430382728577
  orientation: 
    x: -0.0027675412129610777
    y: -0.004151311703026295
    z: 0.0013837706064805388
    w: 0.9999865889549255
---
header: 
  seq: 25372
  stamp: 
    secs: 1654688905
    nsecs: 922620147
  frame_id: "crazyflie/base_link"
pose: 
  position: 
    x: 0.020233958959579468
    y: 0.521957278251648
    z: -0.5032739639282227
  orientation: 
    x: -0.0027675412129610777
    y: -0.004151311703026295
    z: 0.0013837706064805388
    w: 0.9999865889549255
---
header: 
  seq: 25373
  stamp: 
    secs: 1654688905
    nsecs: 932427844
  frame_id: "crazyflie/base_link"
pose: 
  position: 
    x: 0.02657407894730568
    y: 0.5258983969688416
    z: -0.4997495114803314
  orientation: 
    x: -0.0027675412129610777
    y: -0.0027675412129610777
    z: 0.0013837706064805388
    w: 0.9999913573265076
---
header: 
  seq: 25374
  stamp: 
    secs: 1654688905
    nsecs: 961538854
  frame_id: "crazyflie/base_link"
pose: 
  position: 
    x: 0.023929009214043617
    y: 0.5308025479316711
    z: -0.4913577437400818
  orientation: 
    x: -0.0027675412129610777
    y: -0.004151311703026295
    z: 0.0013837706064805388
    w: 0.9999865889549255
---
header: 
  seq: 25375
  stamp: 
    secs: 1654688905
    nsecs: 970694625
  frame_id: "crazyflie/base_link"
pose: 
  position: 
    x: 0.024436550214886665
    y: 0.5337093472480774
    z: -0.4941951334476471
  orientation: 
    x: -0.0027675412129610777
    y: -0.004151311703026295
    z: 0.0013837706064805388
    w: 0.9999865889549255
---
header: 
  seq: 25376
  stamp: 
    secs: 1654688905
    nsecs: 981722894
  frame_id: "crazyflie/base_link"
pose: 
  position: 
    x: 0.028203226625919342
    y: 0.5322171449661255
    z: -0.49247491359710693
  orientation: 
    x: -0.0027675412129610777
    y: -0.004151311703026295
    z: 0.0013837706064805388
    w: 0.9999865889549255
---
header: 
  seq: 25377
  stamp: 
    secs: 1654688905
    nsecs: 991032923
  frame_id: "crazyflie/base_link"
pose: 
  position: 
    x: 0.02457302063703537
    y: 0.5308933258056641
    z: -0.4926890730857849
  orientation: 
    x: -0.0027675412129610777
    y: -0.004151311703026295
    z: 0.0013837706064805388
    w: 0.9999865889549255
---
header: 
  seq: 25378
  stamp: 
    secs: 1654688906
    nsecs:   2448076
  frame_id: "crazyflie/base_link"
pose: 
  position: 
    x: 0.015940798446536064
    y: 0.5222249627113342
    z: -0.500693142414093
  orientation: 
    x: -0.0027675412129610777
    y: -0.004151311703026295
    z: 0.0013837706064805388
    w: 0.9999865889549255
---
header: 
  seq: 25379
  stamp: 
    secs: 1654688906
    nsecs:  12423796
  frame_id: "crazyflie/base_link"
pose: 
  position: 
    x: 0.019099246710538864
    y: 0.5221408605575562
    z: -0.4958297908306122
  orientation: 
    x: -0.0027675412129610777
    y: -0.004151311703026295
    z: 0.0013837706064805388
    w: 0.9999865889549255
---
header: 
  seq: 25380
  stamp: 
    secs: 1654688906
    nsecs:  22021491
  frame_id: "crazyflie/base_link"
pose: 
  position: 
    x: 0.017550192773342133
    y: 0.5260674357414246
    z: -0.5018094182014465
  orientation: 
    x: -0.0027675412129610777
    y: -0.004151311703026295
    z: 0.0013837706064805388
    w: 0.9999865889549255
---
header: 
  seq: 25381
  stamp: 
    secs: 1654688906
    nsecs:  31588205
  frame_id: "crazyflie/base_link"
pose: 
  position: 
    x: 0.021104631945490837
    y: 0.5313072204589844
    z: -0.5083329081535339
  orientation: 
    x: -0.0027675412129610777
    y: -0.004151311703026295
    z: 0.0013837706064805388
    w: 0.9999865889549255
---
header: 
  seq: 25382
  stamp: 
    secs: 1654688906
    nsecs:  41206739
  frame_id: "crazyflie/base_link"
pose: 
  position: 
    x: 0.016275709494948387
    y: 0.5293178558349609
    z: -0.5076442360877991
  orientation: 
    x: -0.0027675412129610777
    y: -0.004151311703026295
    z: 0.0013837706064805388
    w: 0.9999865889549255
---
header: 
  seq: 25383
  stamp: 
    secs: 1654688906
    nsecs:  52453372
  frame_id: "crazyflie/base_link"
pose: 
  position: 
    x: 0.016605697572231293
    y: 0.531968355178833
    z: -0.5057439208030701
  orientation: 
    x: -0.0027675412129610777
    y: -0.004151311703026295
    z: 0.0013837706064805388
    w: 0.9999865889549255
---
header: 
  seq: 25384
  stamp: 
    secs: 1654688906
    nsecs:  61537245
  frame_id: "crazyflie/base_link"
pose: 
  position: 
    x: 0.021314289420843124
    y: 0.5299400687217712
    z: -0.5018816590309143
  orientation: 
    x: -0.0027675412129610777
    y: -0.004151311703026295
    z: 0.0013837706064805388
    w: 0.9999865889549255
---
header: 
  seq: 25385
  stamp: 
    secs: 1654688906
    nsecs:  70820187
  frame_id: "crazyflie/base_link"
pose: 
  position: 
    x: 0.01867876574397087
    y: 0.5300368070602417
    z: -0.5029245018959045
  orientation: 
    x: -0.0027675412129610777
    y: -0.004151311703026295
    z: 0.0013837706064805388
    w: 0.9999865889549255
---
header: 
  seq: 25386
  stamp: 
    secs: 1654688906
    nsecs:  81911222
  frame_id: "crazyflie/base_link"
pose: 
  position: 
    x: 0.018572106957435608
    y: 0.5335181355476379
    z: -0.5083266496658325
  orientation: 
    x: -0.0027675412129610777
    y: -0.004151311703026295
    z: 0.0013837706064805388
    w: 0.9999865889549255
---
header: 
  seq: 25387
  stamp: 
    secs: 1654688906
    nsecs:  91070188
  frame_id: "crazyflie/base_link"
pose: 
  position: 
    x: 0.015748681500554085
    y: 0.5323327779769897
    z: -0.5077353715896606
  orientation: 
    x: -0.0027675412129610777
    y: -0.004151311703026295
    z: 0.0013837706064805388
    w: 0.9999865889549255
---
header: 
  seq: 25388
  stamp: 
    secs: 1654688906
    nsecs: 102039234
  frame_id: "crazyflie/base_link"
pose: 
  position: 
    x: 0.020247377455234528
    y: 0.5333361029624939
    z: -0.5094192624092102
  orientation: 
    x: -0.0027675412129610777
    y: -0.004151311703026295
    z: 0.0013837706064805388
    w: 0.9999865889549255
---
header: 
  seq: 25389
  stamp: 
    secs: 1654688906
    nsecs: 121632232
  frame_id: "crazyflie/base_link"
pose: 
  position: 
    x: 0.006683138199150562
    y: 0.5279693603515625
    z: -0.5253922939300537
  orientation: 
    x: -0.0027675412129610777
    y: -0.004151311703026295
    z: 0.0013837706064805388
    w: 0.9999865889549255
---
header: 
  seq: 25390
  stamp: 
    secs: 1654688906
    nsecs: 130939072
  frame_id: "crazyflie/base_link"
pose: 
  position: 
    x: 0.0010054082376882434
    y: 0.5321967005729675
    z: -0.5306286811828613
  orientation: 
    x: -0.0027675412129610777
    y: -0.004151311703026295
    z: 0.0013837706064805388
    w: 0.9999865889549255
---
header: 
  seq: 25391
  stamp: 
    secs: 1654688906
    nsecs: 142286687
  frame_id: "crazyflie/base_link"
pose: 
  position: 
    x: 0.001143072615377605
    y: 0.5321624875068665
    z: -0.530210554599762
  orientation: 
    x: -0.0027675412129610777
    y: -0.004151311703026295
    z: 0.0013837706064805388
    w: 0.9999865889549255
---
header: 
  seq: 25392
  stamp: 
    secs: 1654688906
    nsecs: 151519951
  frame_id: "crazyflie/base_link"
pose: 
  position: 
    x: 0.001195314689539373
    y: 0.5322979688644409
    z: -0.528684675693512
  orientation: 
    x: -0.0027675412129610777
    y: -0.004151311703026295
    z: 0.0013837706064805388
    w: 0.9999865889549255
---
header: 
  seq: 25393
  stamp: 
    secs: 1654688906
    nsecs: 160782676
  frame_id: "crazyflie/base_link"
pose: 
  position: 
    x: -0.0012591402046382427
    y: 0.5321884155273438
    z: -0.5271571278572083
  orientation: 
    x: -0.0027675412129610777
    y: -0.004151311703026295
    z: 0.0013837706064805388
    w: 0.9999865889549255
---
header: 
  seq: 25394
  stamp: 
    secs: 1654688906
    nsecs: 171853821
  frame_id: "crazyflie/base_link"
pose: 
  position: 
    x: 0.0035139659885317087
    y: 0.5363665223121643
    z: -0.5263516306877136
  orientation: 
    x: -0.0027675412129610777
    y: -0.004151311703026295
    z: 0.0013837706064805388
    w: 0.9999865889549255
---
header: 
  seq: 25395
  stamp: 
    secs: 1654688906
    nsecs: 181457626
  frame_id: "crazyflie/base_link"
pose: 
  position: 
    x: 0.00015588004316668957
    y: 0.5356357097625732
    z: -0.5335521101951599
  orientation: 
    x: -0.0027675412129610777
    y: -0.004151311703026295
    z: 0.0013837706064805388
    w: 0.9999865889549255
---
header: 
  seq: 25396
  stamp: 
    secs: 1654688906
    nsecs: 190942673
  frame_id: "crazyflie/base_link"
pose: 
  position: 
    x: -0.0026731493417173624
    y: 0.5345199108123779
    z: -0.5315542221069336
  orientation: 
    x: -0.0027675412129610777
    y: -0.004151311703026295
    z: 0.0013837706064805388
    w: 0.9999865889549255
---
header: 
  seq: 25397
  stamp: 
    secs: 1654688906
    nsecs: 202562363
  frame_id: "crazyflie/base_link"
pose: 
  position: 
    x: -0.003318547271192074
    y: 0.5379530191421509
    z: -0.5376995801925659
  orientation: 
    x: -0.0027675412129610777
    y: -0.004151311703026295
    z: 0.0013837706064805388
    w: 0.9999865889549255
---
header: 
  seq: 25398
  stamp: 
    secs: 1654688906
    nsecs: 222491931
  frame_id: "crazyflie/base_link"
pose: 
  position: 
    x: -0.0032576024532318115
    y: 0.5374007821083069
    z: -0.5365697145462036
  orientation: 
    x: -0.0027675412129610777
    y: -0.004151311703026295
    z: 0.0013837706064805388
    w: 0.9999865889549255
---
header: 
  seq: 25399
  stamp: 
    secs: 1654688906
    nsecs: 231774831
  frame_id: "crazyflie/base_link"
pose: 
  position: 
    x: -0.004442980047315359
    y: 0.53790283203125
    z: -0.5425401329994202
  orientation: 
    x: -0.0027675412129610777
    y: -0.004151311703026295
    z: 0.0013837706064805388
    w: 0.9999865889549255
---
header: 
  seq: 25400
  stamp: 
    secs: 1654688906
    nsecs: 241235217
  frame_id: "crazyflie/base_link"
pose: 
  position: 
    x: -0.008588666096329689
    y: 0.5363419055938721
    z: -0.54014652967453
  orientation: 
    x: -0.0027675412129610777
    y: -0.004151311703026295
    z: 0.0013837706064805388
    w: 0.9999865889549255
---
header: 
  seq: 25401
  stamp: 
    secs: 1654688906
    nsecs: 250487141
  frame_id: "crazyflie/base_link"
pose: 
  position: 
    x: -0.009222167544066906
    y: 0.5432710647583008
    z: -0.5422807931900024
  orientation: 
    x: -0.0027675412129610777
    y: -0.004151311703026295
    z: 0.0013837706064805388
    w: 0.9999865889549255
---
header: 
  seq: 25402
  stamp: 
    secs: 1654688906
    nsecs: 261491731
  frame_id: "crazyflie/base_link"
pose: 
  position: 
    x: -0.00853775255382061
    y: 0.5427668690681458
    z: -0.5419730544090271
  orientation: 
    x: -0.0027675412129610777
    y: -0.004151311703026295
    z: 0.0013837706064805388
    w: 0.9999865889549255
---
header: 
  seq: 25403
  stamp: 
    secs: 1654688906
    nsecs: 272090432
  frame_id: "crazyflie/base_link"
pose: 
  position: 
    x: -0.005340342875570059
    y: 0.5462373495101929
    z: -0.5421487092971802
  orientation: 
    x: -0.0027675412129610777
    y: -0.004151311703026295
    z: 0.0013837706064805388
    w: 0.9999865889549255
---
header: 
  seq: 25404
  stamp: 
    secs: 1654688906
    nsecs: 281317927
  frame_id: "crazyflie/base_link"
pose: 
  position: 
    x: 0.00015928484208416194
    y: 0.539408802986145
    z: -0.5350094437599182
  orientation: 
    x: -0.0027675412129610777
    y: -0.004151311703026295
    z: 0.0013837706064805388
    w: 0.9999865889549255
---
header: 
  seq: 25405
  stamp: 
    secs: 1654688906
    nsecs: 290697267
  frame_id: "crazyflie/base_link"
pose: 
  position: 
    x: 0.00024216322344727814
    y: 0.5416586995124817
    z: -0.5378334522247314
  orientation: 
    x: -0.0027675412129610777
    y: -0.004151311703026295
    z: 0.0013837706064805388
    w: 0.9999865889549255
---
header: 
  seq: 25406
  stamp: 
    secs: 1654688906
    nsecs: 302066745
  frame_id: "crazyflie/base_link"
pose: 
  position: 
    x: 0.0004067499248776585
    y: 0.5470957159996033
    z: -0.5450048446655273
  orientation: 
    x: -0.0027675412129610777
    y: -0.004151311703026295
    z: 0.0013837706064805388
    w: 0.9999865889549255
---
header: 
  seq: 25407
  stamp: 
    secs: 1654688906
    nsecs: 312039154
  frame_id: "crazyflie/base_link"
pose: 
  position: 
    x: 0.000604949367698282
    y: 0.547268271446228
    z: -0.5446463227272034
  orientation: 
    x: -0.0027675412129610777
    y: -0.004151311703026295
    z: 0.0013837706064805388
    w: 0.9999865889549255
---
header: 
  seq: 25408
  stamp: 
    secs: 1654688906
    nsecs: 321232580
  frame_id: "crazyflie/base_link"
pose: 
  position: 
    x: 0.006142482161521912
    y: 0.5518169403076172
    z: -0.5435734391212463
  orientation: 
    x: -0.004151311703026295
    y: -0.004151311703026295
    z: 0.0013837706064805388
    w: 0.9999818205833435
---
header: 
  seq: 25409
  stamp: 
    secs: 1654688906
    nsecs: 330350594
  frame_id: "crazyflie/base_link"
pose: 
  position: 
    x: 0.009181707166135311
    y: 0.5465263724327087
    z: -0.5403996706008911
  orientation: 
    x: -0.0027675412129610777
    y: -0.004151311703026295
    z: 0.0013837706064805388
    w: 0.9999865889549255
---
header: 
  seq: 25410
  stamp: 
    secs: 1654688906
    nsecs: 341616046
  frame_id: "crazyflie/base_link"
pose: 
  position: 
    x: 0.002680898178368807
    y: 0.5484157800674438
    z: -0.5440797209739685
  orientation: 
    x: -0.004151311703026295
    y: -0.004151311703026295
    z: 0.0013837706064805388
    w: 0.9999818205833435
---
header: 
  seq: 25411
  stamp: 
    secs: 1654688906
    nsecs: 351185374
  frame_id: "crazyflie/base_link"
pose: 
  position: 
    x: 0.00444716727361083
    y: 0.5506377220153809
    z: -0.5382740497589111
  orientation: 
    x: -0.004151311703026295
    y: -0.004151311703026295
    z: 0.0013837706064805388
    w: 0.9999818205833435
---
header: 
  seq: 25412
  stamp: 
    secs: 1654688906
    nsecs: 360604537
  frame_id: "crazyflie/base_link"
pose: 
  position: 
    x: 0.0044108545407652855
    y: 0.5482321977615356
    z: -0.5378643870353699
  orientation: 
    x: -0.0027675412129610777
    y: -0.004151311703026295
    z: 0.0013837706064805388
    w: 0.9999865889549255
---
header: 
  seq: 25413
  stamp: 
    secs: 1654688906
    nsecs: 371267502
  frame_id: "crazyflie/base_link"
pose: 
  position: 
    x: -0.007471182849258184
    y: 0.5411757826805115
    z: -0.5465220212936401
  orientation: 
    x: -0.0027675412129610777
    y: -0.004151311703026295
    z: 0.0013837706064805388
    w: 0.9999865889549255
---
header: 
  seq: 25414
  stamp: 
    secs: 1654688906
    nsecs: 381884161
  frame_id: "crazyflie/base_link"
pose: 
  position: 
    x: -0.004471392370760441
    y: 0.5417889356613159
    z: -0.5412514805793762
  orientation: 
    x: -0.0027675412129610777
    y: -0.004151311703026295
    z: 0.0013837706064805388
    w: 0.9999865889549255
---
header: 
  seq: 25415
  stamp: 
    secs: 1654688906
    nsecs: 390754092
  frame_id: "crazyflie/base_link"
pose: 
  position: 
    x: -0.008583374321460724
    y: 0.543143093585968
    z: -0.5432541370391846
  orientation: 
    x: -0.0027675412129610777
    y: -0.004151311703026295
    z: 0.0013837706064805388
    w: 0.9999865889549255
---
header: 
  seq: 25416
  stamp: 
    secs: 1654688906
    nsecs: 401387954
  frame_id: "crazyflie/base_link"
pose: 
  position: 
    x: -0.002296997932717204
    y: 0.5467823147773743
    z: -0.5383498668670654
  orientation: 
    x: -0.0027675412129610777
    y: -0.004151311703026295
    z: 0.0013837706064805388
    w: 0.9999865889549255
---
header: 
  seq: 25417
  stamp: 
    secs: 1654688906
    nsecs: 412912349
  frame_id: "crazyflie/base_link"
pose: 
  position: 
    x: -0.0053030699491500854
    y: 0.5457609295845032
    z: -0.5368337035179138
  orientation: 
    x: -0.0027675412129610777
    y: -0.004151311703026295
    z: 0.0013837706064805388
    w: 0.9999865889549255
---
header: 
  seq: 25418
  stamp: 
    secs: 1654688906
    nsecs: 423269390
  frame_id: "crazyflie/base_link"
pose: 
  position: 
    x: 0.0004586511058732867
    y: 0.547650158405304
    z: -0.534511387348175
  orientation: 
    x: -0.0027675412129610777
    y: -0.004151311703026295
    z: 0.0013837706064805388
    w: 0.9999865889549255
---
header: 
  seq: 25419
  stamp: 
    secs: 1654688906
    nsecs: 430108532
  frame_id: "crazyflie/base_link"
pose: 
  position: 
    x: -0.0019168194849044085
    y: 0.5406152009963989
    z: -0.5381707549095154
  orientation: 
    x: -0.0027675412129610777
    y: -0.004151311703026295
    z: 0.0013837706064805388
    w: 0.9999865889549255
---
header: 
  seq: 25420
  stamp: 
    secs: 1654688906
    nsecs: 440907387
  frame_id: "crazyflie/base_link"
pose: 
  position: 
    x: -0.004170258529484272
    y: 0.540192723274231
    z: -0.5373355150222778
  orientation: 
    x: -0.0027675412129610777
    y: -0.004151311703026295
    z: 0.0013837706064805388
    w: 0.9999865889549255
---
header: 
  seq: 25421
  stamp: 
    secs: 1654688906
    nsecs: 451507620
  frame_id: "crazyflie/base_link"
pose: 
  position: 
    x: -0.0021436582319438457
    y: 0.5406797528266907
    z: -0.5409883260726929
  orientation: 
    x: -0.0027675412129610777
    y: -0.004151311703026295
    z: 0.0013837706064805388
    w: 0.9999865889549255
---
header: 
  seq: 25422
  stamp: 
    secs: 1654688906
    nsecs: 460522154
  frame_id: "crazyflie/base_link"
pose: 
  position: 
    x: -0.002732669934630394
    y: 0.5404723882675171
    z: -0.5403187274932861
  orientation: 
    x: -0.0027675412129610777
    y: -0.004151311703026295
    z: 0.0013837706064805388
    w: 0.9999865889549255
---
header: 
  seq: 25423
  stamp: 
    secs: 1654688906
    nsecs: 471441971
  frame_id: "crazyflie/base_link"
pose: 
  position: 
    x: -0.012505960650742054
    y: 0.5426432490348816
    z: -0.5473532676696777
  orientation: 
    x: -0.0027675412129610777
    y: -0.004151311703026295
    z: 0.0013837706064805388
